{"type":"Topology","arcs":[],"objects":{"ADMIN_DIV_0":{"type":"GeometryCollection","geometries":[{"type":"Point","coordinates":[-69.97749199338656,12.521247847246805],"properties":{"GEOID":"AW","ADMIN":"Aruba","NAME":"Aruba","NAME_LONG":"Aruba","FORMAL_EN":"Aruba","NAME_SORT":"Aruba","ISO_A3":"ABW"}},{"type":"Point","coordinates":[66.496892236593,34.16460587266532],"properties":{"GEOID":"AF","ADMIN":"Afghanistan","NAME":"Afghanistan","NAME_LONG":"Afghanistan","FORMAL_EN":"Islamic State of Afghanistan","NAME_SORT":"Afghanistan","ISO_A3":"AFG"}},{"type":"Point","coordinates":[17.980943369424935,-12.186734889459709],"properties":{"GEOID":"AO","ADMIN":"Angola","NAME":"Angola","NAME_LONG":"Angola","FORMAL_EN":"People's Republic of Angola","NAME_SORT":"Angola","ISO_A3":"AGO"}},{"type":"Point","coordinates":[-63.01970359270223,18.251128979207856],"properties":{"GEOID":"AI","ADMIN":"Anguilla","NAME":"Anguilla","NAME_LONG":"Anguilla","FORMAL_EN":"","NAME_SORT":"Anguilla","ISO_A3":"AIA"}},{"type":"Point","coordinates":[20.11457250390448,40.655266956528116],"properties":{"GEOID":"AL","ADMIN":"Albania","NAME":"Albania","NAME_LONG":"Albania","FORMAL_EN":"Republic of Albania","NAME_SORT":"Albania","ISO_A3":"ALB"}},{"type":"Point","coordinates":[20.035808943154905,60.246573624680934],"properties":{"GEOID":"AX","ADMIN":"Aland","NAME":"Aland","NAME_LONG":"Aland Islands","FORMAL_EN":"Åland Islands","NAME_SORT":"Aland","ISO_A3":"ALA"}},{"type":"Point","coordinates":[1.5270382733622414,42.54762738570261],"properties":{"GEOID":"AD","ADMIN":"Andorra","NAME":"Andorra","NAME_LONG":"Andorra","FORMAL_EN":"Principality of Andorra","NAME_SORT":"Andorra","ISO_A3":"AND"}},{"type":"Point","coordinates":[54.5484435172713,23.459401583369285],"properties":{"GEOID":"AE","ADMIN":"United Arab Emirates","NAME":"United Arab Emirates","NAME_LONG":"United Arab Emirates","FORMAL_EN":"United Arab Emirates","NAME_SORT":"United Arab Emirates","ISO_A3":"ARE"}},{"type":"Point","coordinates":[-64.18126689187486,-33.5158779173569],"properties":{"GEOID":"AR","ADMIN":"Argentina","NAME":"Argentina","NAME_LONG":"Argentina","FORMAL_EN":"Argentine Republic","NAME_SORT":"Argentina","ISO_A3":"ARG"}},{"type":"Point","coordinates":[44.776681195235675,40.52652441583364],"properties":{"GEOID":"AM","ADMIN":"Armenia","NAME":"Armenia","NAME_LONG":"Armenia","FORMAL_EN":"Republic of Armenia","NAME_SORT":"Armenia","ISO_A3":"ARM"}},{"type":"Point","coordinates":[-170.7499003122987,-14.328405634863707],"properties":{"GEOID":"AS","ADMIN":"American Samoa","NAME":"American Samoa","NAME_LONG":"American Samoa","FORMAL_EN":"American Samoa","NAME_SORT":"American Samoa","ISO_A3":"ASM"}},{"type":"Point","coordinates":[123.58609386428984,-12.432582740743634],"properties":{"GEOID":"-99","ADMIN":"Ashmore and Cartier Islands","NAME":"Ashmore and Cartier Is.","NAME_LONG":"Ashmore and Cartier Islands","FORMAL_EN":"Territory of Ashmore and Cartier Islands","NAME_SORT":"Ashmore and Cartier Islands","ISO_A3":"-99"}},{"type":"Point","coordinates":[69.5075778659845,-49.43934825503339],"properties":{"GEOID":"TF","ADMIN":"French Southern and Antarctic Lands","NAME":"Fr. S. Antarctic Lands","NAME_LONG":"French Southern and Antarctic Lands","FORMAL_EN":"Territory of the French Southern and Antarctic Lands","NAME_SORT":"French Southern and Antarctic Lands","ISO_A3":"ATF"}},{"type":"Point","coordinates":[-61.80773281218238,17.073499197672852],"properties":{"GEOID":"AG","ADMIN":"Antigua and Barbuda","NAME":"Antigua and Barb.","NAME_LONG":"Antigua and Barbuda","FORMAL_EN":"Antigua and Barbuda","NAME_SORT":"Antigua and Barbuda","ISO_A3":"ATG"}},{"type":"Point","coordinates":[134.05021529131187,-24.037102219825734],"properties":{"GEOID":"AU","ADMIN":"Australia","NAME":"Australia","NAME_LONG":"Australia","FORMAL_EN":"Commonwealth of Australia","NAME_SORT":"Australia","ISO_A3":"AUS"}},{"type":"Point","coordinates":[14.128794910194777,47.51862377382959],"properties":{"GEOID":"AT","ADMIN":"Austria","NAME":"Austria","NAME_LONG":"Austria","FORMAL_EN":"Republic of Austria","NAME_SORT":"Austria","ISO_A3":"AUT"}},{"type":"Point","coordinates":[47.21289541207719,40.39951017959139],"properties":{"GEOID":"AZ","ADMIN":"Azerbaijan","NAME":"Azerbaijan","NAME_LONG":"Azerbaijan","FORMAL_EN":"Republic of Azerbaijan","NAME_SORT":"Azerbaijan","ISO_A3":"AZE"}},{"type":"Point","coordinates":[29.862181358964744,-3.3808359757132003],"properties":{"GEOID":"BI","ADMIN":"Burundi","NAME":"Burundi","NAME_LONG":"Burundi","FORMAL_EN":"Republic of Burundi","NAME_SORT":"Burundi","ISO_A3":"BDI"}},{"type":"Point","coordinates":[4.60862950801887,50.78755897193047],"properties":{"GEOID":"BE","ADMIN":"Belgium","NAME":"Belgium","NAME_LONG":"Belgium","FORMAL_EN":"Kingdom of Belgium","NAME_SORT":"Belgium","ISO_A3":"BEL"}},{"type":"Point","coordinates":[2.3525659076960306,10.391266564327587],"properties":{"GEOID":"BJ","ADMIN":"Benin","NAME":"Benin","NAME_LONG":"Benin","FORMAL_EN":"Republic of Benin","NAME_SORT":"Benin","ISO_A3":"BEN"}},{"type":"Point","coordinates":[-1.1526906362042246,12.709615564829559],"properties":{"GEOID":"BF","ADMIN":"Burkina Faso","NAME":"Burkina Faso","NAME_LONG":"Burkina Faso","FORMAL_EN":"Burkina Faso","NAME_SORT":"Burkina Faso","ISO_A3":"BFA"}},{"type":"Point","coordinates":[89.6853899647174,24.19307108501898],"properties":{"GEOID":"BD","ADMIN":"Bangladesh","NAME":"Bangladesh","NAME_LONG":"Bangladesh","FORMAL_EN":"People's Republic of Bangladesh","NAME_SORT":"Bangladesh","ISO_A3":"BGD"}},{"type":"Point","coordinates":[25.157415442806375,42.506541478656445],"properties":{"GEOID":"BG","ADMIN":"Bulgaria","NAME":"Bulgaria","NAME_LONG":"Bulgaria","FORMAL_EN":"Republic of Bulgaria","NAME_SORT":"Bulgaria","ISO_A3":"BGR"}},{"type":"Point","coordinates":[50.553814635685384,26.043290708617043],"properties":{"GEOID":"BH","ADMIN":"Bahrain","NAME":"Bahrain","NAME_LONG":"Bahrain","FORMAL_EN":"Kingdom of Bahrain","NAME_SORT":"Bahrain","ISO_A3":"BHR"}},{"type":"Point","coordinates":[-77.13490515842204,26.38627093131959],"properties":{"GEOID":"BS","ADMIN":"The Bahamas","NAME":"Bahamas","NAME_LONG":"Bahamas","FORMAL_EN":"Commonwealth of the Bahamas","NAME_SORT":"Bahamas, The","ISO_A3":"BHS"}},{"type":"Point","coordinates":[17.965109746916347,44.12155548923559],"properties":{"GEOID":"BA","ADMIN":"Bosnia and Herzegovina","NAME":"Bosnia and Herz.","NAME_LONG":"Bosnia and Herzegovina","FORMAL_EN":"Bosnia and Herzegovina","NAME_SORT":"Bosnia and Herzegovina","ISO_A3":"BIH"}},{"type":"Point","coordinates":[-79.9877336516649,15.794681843456935],"properties":{"GEOID":"-99","ADMIN":"Bajo Nuevo Bank (Petrel Is.)","NAME":"Bajo Nuevo Bank (Petrel Is.)","NAME_LONG":"Bajo Nuevo Bank (Petrel Islands)","FORMAL_EN":"","NAME_SORT":"Bajo Nuevo Bank (Petrel Is.)","ISO_A3":"-99"}},{"type":"Point","coordinates":[-62.83109082725042,17.905533871471253],"properties":{"GEOID":"BL","ADMIN":"Saint Barthelemy","NAME":"St-Barthélemy","NAME_LONG":"Saint-Barthélemy","FORMAL_EN":"Saint-Barthélemy","NAME_SORT":"St-Barthélemy","ISO_A3":"BLM"}},{"type":"Point","coordinates":[28.41994411133744,53.81991185020725],"properties":{"GEOID":"BY","ADMIN":"Belarus","NAME":"Belarus","NAME_LONG":"Belarus","FORMAL_EN":"Republic of Belarus","NAME_SORT":"Belarus","ISO_A3":"BLR"}},{"type":"Point","coordinates":[-88.71292668853393,17.19798678341504],"properties":{"GEOID":"BZ","ADMIN":"Belize","NAME":"Belize","NAME_LONG":"Belize","FORMAL_EN":"Belize","NAME_SORT":"Belize","ISO_A3":"BLZ"}},{"type":"Point","coordinates":[-64.70723475129613,32.34796511193342],"properties":{"GEOID":"BM","ADMIN":"Bermuda","NAME":"Bermuda","NAME_LONG":"Bermuda","FORMAL_EN":"The Bermudas or Somers Isles","NAME_SORT":"Bermuda","ISO_A3":"BMU"}},{"type":"Point","coordinates":[-64.68285584148012,-16.630970566542256],"properties":{"GEOID":"BO","ADMIN":"Bolivia","NAME":"Bolivia","NAME_LONG":"Bolivia","FORMAL_EN":"Plurinational State of Bolivia","NAME_SORT":"Bolivia","ISO_A3":"BOL"}},{"type":"Point","coordinates":[-49.554064695097445,-12.265945856755554],"properties":{"GEOID":"BR","ADMIN":"Brazil","NAME":"Brazil","NAME_LONG":"Brazil","FORMAL_EN":"Federative Republic of Brazil","NAME_SORT":"Brazil","ISO_A3":"BRA"}},{"type":"Point","coordinates":[-59.5615895136178,13.159683289026352],"properties":{"GEOID":"BB","ADMIN":"Barbados","NAME":"Barbados","NAME_LONG":"Barbados","FORMAL_EN":"Barbados","NAME_SORT":"Barbados","ISO_A3":"BRB"}},{"type":"Point","coordinates":[114.55249510433926,4.44821318275454],"properties":{"GEOID":"BN","ADMIN":"Brunei","NAME":"Brunei","NAME_LONG":"Brunei Darussalam","FORMAL_EN":"Negara Brunei Darussalam","NAME_SORT":"Brunei","ISO_A3":"BRN"}},{"type":"Point","coordinates":[90.0363824178879,27.535768086809647],"properties":{"GEOID":"BT","ADMIN":"Bhutan","NAME":"Bhutan","NAME_LONG":"Bhutan","FORMAL_EN":"Kingdom of Bhutan","NAME_SORT":"Bhutan","ISO_A3":"BTN"}},{"type":"Point","coordinates":[24.178653697569263,-22.103169985226618],"properties":{"GEOID":"BW","ADMIN":"Botswana","NAME":"Botswana","NAME_LONG":"Botswana","FORMAL_EN":"Republic of Botswana","NAME_SORT":"Botswana","ISO_A3":"BWA"}},{"type":"Point","coordinates":[20.903990998617157,6.976966418200009],"properties":{"GEOID":"CF","ADMIN":"Central African Republic","NAME":"Central African Rep.","NAME_LONG":"Central African Republic","FORMAL_EN":"Central African Republic","NAME_SORT":"Central African Republic","ISO_A3":"CAF"}},{"type":"Point","coordinates":[-112.38052680684393,58.34047117055162],"properties":{"GEOID":"CA","ADMIN":"Canada","NAME":"Canada","NAME_LONG":"Canada","FORMAL_EN":"Canada","NAME_SORT":"Canada","ISO_A3":"CAN"}},{"type":"Point","coordinates":[7.465701099531956,46.71282476135225],"properties":{"GEOID":"CH","ADMIN":"Switzerland","NAME":"Switzerland","NAME_LONG":"Switzerland","FORMAL_EN":"Swiss Confederation","NAME_SORT":"Switzerland","ISO_A3":"CHE"}},{"type":"Point","coordinates":[-72.33917605699129,-37.99141949040526],"properties":{"GEOID":"CL","ADMIN":"Chile","NAME":"Chile","NAME_LONG":"Chile","FORMAL_EN":"Republic of Chile","NAME_SORT":"Chile","ISO_A3":"CHL"}},{"type":"Point","coordinates":[106.33589079787383,32.49875944602044],"properties":{"GEOID":"CN","ADMIN":"China","NAME":"China","NAME_LONG":"China","FORMAL_EN":"People's Republic of China","NAME_SORT":"China","ISO_A3":"CHN"}},{"type":"Point","coordinates":[-5.50988927186782,7.581607507620811],"properties":{"GEOID":"CI","ADMIN":"Ivory Coast","NAME":"Côte d'Ivoire","NAME_LONG":"Côte d'Ivoire","FORMAL_EN":"Republic of Ivory Coast","NAME_SORT":"Côte d'Ivoire","ISO_A3":"CIV"}},{"type":"Point","coordinates":[-109.21992161581424,10.298118632908043],"properties":{"GEOID":"-99","ADMIN":"Clipperton Island","NAME":"Clipperton I.","NAME_LONG":"Clipperton Island","FORMAL_EN":"","NAME_SORT":"Clipperton Island","ISO_A3":"-99"}},{"type":"Point","coordinates":[12.474726787966784,4.5897879015321275],"properties":{"GEOID":"CM","ADMIN":"Cameroon","NAME":"Cameroon","NAME_LONG":"Cameroon","FORMAL_EN":"Republic of Cameroon","NAME_SORT":"Cameroon","ISO_A3":"CMR"}},{"type":"Point","coordinates":[33.27883447410838,35.14799782922388],"properties":{"GEOID":"-99","ADMIN":"Cyprus No Mans Area","NAME":"Cyprus U.N. Buffer Zone","NAME_LONG":"Cyprus U.N. Buffer Zone","FORMAL_EN":"Cyprus No Mans Land","NAME_SORT":"Cyprus No Mans Area","ISO_A3":"-99"}},{"type":"Point","coordinates":[23.503320642373374,-2.2931944600458185],"properties":{"GEOID":"CD","ADMIN":"Democratic Republic of the Congo","NAME":"Dem. Rep. Congo","NAME_LONG":"Democratic Republic of the Congo","FORMAL_EN":"Democratic Republic of the Congo","NAME_SORT":"Congo, Dem. Rep.","ISO_A3":"COD"}},{"type":"Point","coordinates":[15.901735439313526,-0.024987824214242282],"properties":{"GEOID":"CG","ADMIN":"Republic of Congo","NAME":"Congo","NAME_LONG":"Republic of Congo","FORMAL_EN":"Republic of Congo","NAME_SORT":"Congo, Rep.","ISO_A3":"COG"}},{"type":"Point","coordinates":[-159.78783469217097,-21.21777725869232],"properties":{"GEOID":"CK","ADMIN":"Cook Islands","NAME":"Cook Is.","NAME_LONG":"Cook Islands","FORMAL_EN":"","NAME_SORT":"Cook Islands","ISO_A3":"COK"}},{"type":"Point","coordinates":[-73.17176174449239,3.3561828461315],"properties":{"GEOID":"CO","ADMIN":"Colombia","NAME":"Colombia","NAME_LONG":"Colombia","FORMAL_EN":"Republic of Colombia","NAME_SORT":"Colombia","ISO_A3":"COL"}},{"type":"Point","coordinates":[43.317112569767176,-11.728476359437797],"properties":{"GEOID":"KM","ADMIN":"Comoros","NAME":"Comoros","NAME_LONG":"Comoros","FORMAL_EN":"Union of the Comoros","NAME_SORT":"Comoros","ISO_A3":"COM"}},{"type":"Point","coordinates":[-23.63788068834348,15.065900589011264],"properties":{"GEOID":"CV","ADMIN":"Cape Verde","NAME":"Cape Verde","NAME_LONG":"Cape Verde","FORMAL_EN":"Republic of Cape Verde","NAME_SORT":"Cape Verde","ISO_A3":"CPV"}},{"type":"Point","coordinates":[-84.02989594027954,10.064452241775783],"properties":{"GEOID":"CR","ADMIN":"Costa Rica","NAME":"Costa Rica","NAME_LONG":"Costa Rica","FORMAL_EN":"Republic of Costa Rica","NAME_SORT":"Costa Rica","ISO_A3":"CRI"}},{"type":"Point","coordinates":[154.3906161705103,-21.02946432015329],"properties":{"GEOID":"-99","ADMIN":"Coral Sea Islands","NAME":"Coral Sea Is.","NAME_LONG":"Coral Sea Islands","FORMAL_EN":"Coral Sea Islands Territory","NAME_SORT":"Coral Sea Islands","ISO_A3":"-99"}},{"type":"Point","coordinates":[-77.97172193748276,21.328591254945785],"properties":{"GEOID":"CU","ADMIN":"Cuba","NAME":"Cuba","NAME_LONG":"Cuba","FORMAL_EN":"Republic of Cuba","NAME_SORT":"Cuba","ISO_A3":"CUB"}},{"type":"Point","coordinates":[-68.88227252681375,12.130509691574833],"properties":{"GEOID":"CW","ADMIN":"Curaçao","NAME":"Curaçao","NAME_LONG":"Curaçao","FORMAL_EN":"Curaçao","NAME_SORT":"Curaçao","ISO_A3":"CUW"}},{"type":"Point","coordinates":[-81.26208012550856,19.315403484915386],"properties":{"GEOID":"KY","ADMIN":"Cayman Islands","NAME":"Cayman Is.","NAME_LONG":"Cayman Islands","FORMAL_EN":"Cayman Islands","NAME_SORT":"Cayman Islands","ISO_A3":"CYM"}},{"type":"Point","coordinates":[33.61654673657124,35.19368671124582],"properties":{"GEOID":"-99","ADMIN":"Northern Cyprus","NAME":"N. Cyprus","NAME_LONG":"Northern Cyprus","FORMAL_EN":"Turkish Republic of Northern Cyprus","NAME_SORT":"Cyprus, Northern","ISO_A3":"-99"}},{"type":"Point","coordinates":[33.01448284619188,34.88838577076237],"properties":{"GEOID":"CY","ADMIN":"Cyprus","NAME":"Cyprus","NAME_LONG":"Cyprus","FORMAL_EN":"Republic of Cyprus","NAME_SORT":"Cyprus","ISO_A3":"CYP"}},{"type":"Point","coordinates":[15.365441214089252,49.87645924017778],"properties":{"GEOID":"CZ","ADMIN":"Czech Republic","NAME":"Czech Rep.","NAME_LONG":"Czech Republic","FORMAL_EN":"Czech Republic","NAME_SORT":"Czech Republic","ISO_A3":"CZE"}},{"type":"Point","coordinates":[9.682474872350893,51.1715292235412],"properties":{"GEOID":"DE","ADMIN":"Germany","NAME":"Germany","NAME_LONG":"Germany","FORMAL_EN":"Federal Republic of Germany","NAME_SORT":"Germany","ISO_A3":"DEU"}},{"type":"Point","coordinates":[42.49899057405597,11.973885370091178],"properties":{"GEOID":"DJ","ADMIN":"Djibouti","NAME":"Djibouti","NAME_LONG":"Djibouti","FORMAL_EN":"Republic of Djibouti","NAME_SORT":"Djibouti","ISO_A3":"DJI"}},{"type":"Point","coordinates":[-61.34757589456392,15.46181340191929],"properties":{"GEOID":"DM","ADMIN":"Dominica","NAME":"Dominica","NAME_LONG":"Dominica","FORMAL_EN":"Commonwealth of Dominica","NAME_SORT":"Dominica","ISO_A3":"DMA"}},{"type":"Point","coordinates":[9.120213277230445,56.00827834465196],"properties":{"GEOID":"DK","ADMIN":"Denmark","NAME":"Denmark","NAME_LONG":"Denmark","FORMAL_EN":"Kingdom of Denmark","NAME_SORT":"Denmark","ISO_A3":"DNK"}},{"type":"Point","coordinates":[-70.62542774823198,19.094228747159192],"properties":{"GEOID":"DO","ADMIN":"Dominican Republic","NAME":"Dominican Rep.","NAME_LONG":"Dominican Republic","FORMAL_EN":"Dominican Republic","NAME_SORT":"Dominican Republic","ISO_A3":"DOM"}},{"type":"Point","coordinates":[3.3574642017783685,27.90503278311953],"properties":{"GEOID":"DZ","ADMIN":"Algeria","NAME":"Algeria","NAME_LONG":"Algeria","FORMAL_EN":"People's Democratic Republic of Algeria","NAME_SORT":"Algeria","ISO_A3":"DZA"}},{"type":"Point","coordinates":[-78.19189260107056,-1.191779035768055],"properties":{"GEOID":"EC","ADMIN":"Ecuador","NAME":"Ecuador","NAME_LONG":"Ecuador","FORMAL_EN":"Republic of Ecuador","NAME_SORT":"Ecuador","ISO_A3":"ECU"}},{"type":"Point","coordinates":[29.249943708235286,26.422654146659642],"properties":{"GEOID":"EG","ADMIN":"Egypt","NAME":"Egypt","NAME_LONG":"Egypt","FORMAL_EN":"Arab Republic of Egypt","NAME_SORT":"Egypt, Arab Rep.","ISO_A3":"EGY"}},{"type":"Point","coordinates":[38.29253680335896,15.781130165895066],"properties":{"GEOID":"ER","ADMIN":"Eritrea","NAME":"Eritrea","NAME_LONG":"Eritrea","FORMAL_EN":"State of Eritrea","NAME_SORT":"Eritrea","ISO_A3":"ERI"}},{"type":"Point","coordinates":[33.801720984250416,35.02412327890233],"properties":{"GEOID":"-99","ADMIN":"Dhekelia Sovereign Base Area","NAME":"Dhekelia","NAME_LONG":"Dhekelia","FORMAL_EN":"","NAME_SORT":"Dhekelia Soverign Base Area","ISO_A3":"-99"}},{"type":"Point","coordinates":[-3.463129490761148,40.08866461242016],"properties":{"GEOID":"ES","ADMIN":"Spain","NAME":"Spain","NAME_LONG":"Spain","FORMAL_EN":"Kingdom of Spain","NAME_SORT":"Spain","ISO_A3":"ESP"}},{"type":"Point","coordinates":[25.86874665231063,58.72441129327453],"properties":{"GEOID":"EE","ADMIN":"Estonia","NAME":"Estonia","NAME_LONG":"Estonia","FORMAL_EN":"Republic of Estonia","NAME_SORT":"Estonia","ISO_A3":"EST"}},{"type":"Point","coordinates":[39.09016929404948,8.024913744970256],"properties":{"GEOID":"ET","ADMIN":"Ethiopia","NAME":"Ethiopia","NAME_LONG":"Ethiopia","FORMAL_EN":"Federal Democratic Republic of Ethiopia","NAME_SORT":"Ethiopia","ISO_A3":"ETH"}},{"type":"Point","coordinates":[27.2799144386013,63.23499076605367],"properties":{"GEOID":"FI","ADMIN":"Finland","NAME":"Finland","NAME_LONG":"Finland","FORMAL_EN":"Republic of Finland","NAME_SORT":"Finland","ISO_A3":"FIN"}},{"type":"Point","coordinates":[177.9743427204327,-17.826008439858235],"properties":{"GEOID":"FJ","ADMIN":"Fiji","NAME":"Fiji","NAME_LONG":"Fiji","FORMAL_EN":"Republic of Fiji","NAME_SORT":"Fiji","ISO_A3":"FJI"}},{"type":"Point","coordinates":[-58.68683986169198,-51.609456676902276],"properties":{"GEOID":"FK","ADMIN":"Falkland Islands","NAME":"Falkland Is.","NAME_LONG":"Falkland Islands","FORMAL_EN":"Falkland Islands","NAME_SORT":"Falkland Islands","ISO_A3":"FLK"}},{"type":"Point","coordinates":[2.5447532089629377,46.70414973027958],"properties":{"GEOID":"FR","ADMIN":"France","NAME":"France","NAME_LONG":"France","FORMAL_EN":"French Republic","NAME_SORT":"France","ISO_A3":"FRA"}},{"type":"Point","coordinates":[-6.911965910232246,62.25307629553073],"properties":{"GEOID":"FO","ADMIN":"Faroe Islands","NAME":"Faeroe Is.","NAME_LONG":"Faeroe Islands","FORMAL_EN":"Føroyar Is. (Faeroe Is.)","NAME_SORT":"Faeroe Islands","ISO_A3":"FRO"}},{"type":"Point","coordinates":[158.23044261833132,6.885503322752724],"properties":{"GEOID":"FM","ADMIN":"Federated States of Micronesia","NAME":"Micronesia","NAME_LONG":"Federated States of Micronesia","FORMAL_EN":"Federated States of Micronesia","NAME_SORT":"Micronesia, Federated States of","ISO_A3":"FSM"}},{"type":"Point","coordinates":[11.833240455540757,-0.436437497049426],"properties":{"GEOID":"GA","ADMIN":"Gabon","NAME":"Gabon","NAME_LONG":"Gabon","FORMAL_EN":"Gabonese Republic","NAME_SORT":"Gabon","ISO_A3":"GAB"}},{"type":"Point","coordinates":[-1.4631441131613245,52.73433292516212],"properties":{"GEOID":"GB","ADMIN":"United Kingdom","NAME":"United Kingdom","NAME_LONG":"United Kingdom","FORMAL_EN":"United Kingdom of Great Britain and Northern Ireland","NAME_SORT":"United Kingdom","ISO_A3":"GBR"}},{"type":"Point","coordinates":[43.734954238806864,41.87077006762392],"properties":{"GEOID":"GE","ADMIN":"Georgia","NAME":"Georgia","NAME_LONG":"Georgia","FORMAL_EN":"Georgia","NAME_SORT":"Georgia","ISO_A3":"GEO"}},{"type":"Point","coordinates":[-2.580633590472025,49.46061711341146],"properties":{"GEOID":"GG","ADMIN":"Guernsey","NAME":"Guernsey","NAME_LONG":"Guernsey","FORMAL_EN":"Bailiwick of Guernsey","NAME_SORT":"Guernsey","ISO_A3":"GGY"}},{"type":"Point","coordinates":[-1.0377321091268805,7.718032175911322],"properties":{"GEOID":"GH","ADMIN":"Ghana","NAME":"Ghana","NAME_LONG":"Ghana","FORMAL_EN":"Republic of Ghana","NAME_SORT":"Ghana","ISO_A3":"GHA"}},{"type":"Point","coordinates":[-5.34753264714097,36.132285857081925],"properties":{"GEOID":"GI","ADMIN":"Gibraltar","NAME":"Gibraltar","NAME_LONG":"Gibraltar","FORMAL_EN":"","NAME_SORT":"Gibraltar","ISO_A3":"GIB"}},{"type":"Point","coordinates":[-10.017378939672646,10.620609479683162],"properties":{"GEOID":"GN","ADMIN":"Guinea","NAME":"Guinea","NAME_LONG":"Guinea","FORMAL_EN":"Republic of Guinea","NAME_SORT":"Guinea","ISO_A3":"GIN"}},{"type":"Point","coordinates":[-15.38187074804484,13.499349282024882],"properties":{"GEOID":"GM","ADMIN":"Gambia","NAME":"Gambia","NAME_LONG":"The Gambia","FORMAL_EN":"Republic of the Gambia","NAME_SORT":"Gambia, The","ISO_A3":"GMB"}},{"type":"Point","coordinates":[-14.538021273188699,12.161608105712068],"properties":{"GEOID":"GW","ADMIN":"Guinea Bissau","NAME":"Guinea-Bissau","NAME_LONG":"Guinea-Bissau","FORMAL_EN":"Republic of Guinea-Bissau","NAME_SORT":"Guinea-Bissau","ISO_A3":"GNB"}},{"type":"Point","coordinates":[10.467387426519133,1.5842954776457097],"properties":{"GEOID":"GQ","ADMIN":"Equatorial Guinea","NAME":"Eq. Guinea","NAME_LONG":"Equatorial Guinea","FORMAL_EN":"Republic of Equatorial Guinea","NAME_SORT":"Equatorial Guinea","ISO_A3":"GNQ"}},{"type":"Point","coordinates":[21.7705873904294,39.63962761071315],"properties":{"GEOID":"GR","ADMIN":"Greece","NAME":"Greece","NAME_LONG":"Greece","FORMAL_EN":"Hellenic Republic","NAME_SORT":"Greece","ISO_A3":"GRC"}},{"type":"Point","coordinates":[-61.676574976024185,12.118015171121613],"properties":{"GEOID":"GD","ADMIN":"Grenada","NAME":"Grenada","NAME_LONG":"Grenada","FORMAL_EN":"Grenada","NAME_SORT":"Grenada","ISO_A3":"GRD"}},{"type":"Point","coordinates":[-39.36150878106632,74.32789141293557],"properties":{"GEOID":"GL","ADMIN":"Greenland","NAME":"Greenland","NAME_LONG":"Greenland","FORMAL_EN":"Greenland","NAME_SORT":"Greenland","ISO_A3":"GRL"}},{"type":"Point","coordinates":[-90.52650670670224,14.984047495430122],"properties":{"GEOID":"GT","ADMIN":"Guatemala","NAME":"Guatemala","NAME_LONG":"Guatemala","FORMAL_EN":"Republic of Guatemala","NAME_SORT":"Guatemala","ISO_A3":"GTM"}},{"type":"Point","coordinates":[144.71182021558,13.403042918005326],"properties":{"GEOID":"GU","ADMIN":"Guam","NAME":"Guam","NAME_LONG":"Guam","FORMAL_EN":"Territory of Guam","NAME_SORT":"Guam","ISO_A3":"GUM"}},{"type":"Point","coordinates":[-58.94267700173595,5.123697888496675],"properties":{"GEOID":"GY","ADMIN":"Guyana","NAME":"Guyana","NAME_LONG":"Guyana","FORMAL_EN":"Co-operative Republic of Guyana","NAME_SORT":"Guyana","ISO_A3":"GUY"}},{"type":"Point","coordinates":[114.17970024430491,22.439557600117208],"properties":{"GEOID":"HK","ADMIN":"Hong Kong S.A.R.","NAME":"Hong Kong","NAME_LONG":"Hong Kong","FORMAL_EN":"Hong Kong Special Administrative Region, PRC","NAME_SORT":"Hong Kong SAR, China","ISO_A3":"HKG"}},{"type":"Point","coordinates":[73.50676600419563,-53.105528769726085],"properties":{"GEOID":"HM","ADMIN":"Heard Island and McDonald Islands","NAME":"Heard I. and McDonald Is.","NAME_LONG":"Heard I. and McDonald Islands","FORMAL_EN":"Territory of Heard Island and McDonald Islands","NAME_SORT":"Heard Island and McDonald Islands","ISO_A3":"HMD"}},{"type":"Point","coordinates":[-86.8901293511949,14.794023599655556],"properties":{"GEOID":"HN","ADMIN":"Honduras","NAME":"Honduras","NAME_LONG":"Honduras","FORMAL_EN":"Republic of Honduras","NAME_SORT":"Honduras","ISO_A3":"HND"}},{"type":"Point","coordinates":[16.419382040623447,45.82783812552291],"properties":{"GEOID":"HR","ADMIN":"Croatia","NAME":"Croatia","NAME_LONG":"Croatia","FORMAL_EN":"Republic of Croatia","NAME_SORT":"Croatia","ISO_A3":"HRV"}},{"type":"Point","coordinates":[-72.22154176551086,19.182555803134832],"properties":{"GEOID":"HT","ADMIN":"Haiti","NAME":"Haiti","NAME_LONG":"Haiti","FORMAL_EN":"Republic of Haiti","NAME_SORT":"Haiti","ISO_A3":"HTI"}},{"type":"Point","coordinates":[19.448682624291973,47.08576441468183],"properties":{"GEOID":"HU","ADMIN":"Hungary","NAME":"Hungary","NAME_LONG":"Hungary","FORMAL_EN":"Republic of Hungary","NAME_SORT":"Hungary","ISO_A3":"HUN"}},{"type":"Point","coordinates":[101.97606440074632,-1.0085995811277961],"properties":{"GEOID":"ID","ADMIN":"Indonesia","NAME":"Indonesia","NAME_LONG":"Indonesia","FORMAL_EN":"Republic of Indonesia","NAME_SORT":"Indonesia","ISO_A3":"IDN"}},{"type":"Point","coordinates":[-4.512509455693225,54.22881061021237],"properties":{"GEOID":"IM","ADMIN":"Isle of Man","NAME":"Isle of Man","NAME_LONG":"Isle of Man","FORMAL_EN":"","NAME_SORT":"Isle of Man","ISO_A3":"IMN"}},{"type":"Point","coordinates":[79.37560019516862,22.664405338623496],"properties":{"GEOID":"IN","ADMIN":"India","NAME":"India","NAME_LONG":"India","FORMAL_EN":"Republic of India","NAME_SORT":"India","ISO_A3":"IND"}},{"type":"Point","coordinates":[105.67774416637847,-10.49680952542525],"properties":{"GEOID":"-99","ADMIN":"Indian Ocean Territories","NAME":"Indian Ocean Ter.","NAME_LONG":"Indian Ocean Territories","FORMAL_EN":"","NAME_SORT":"Indian Ocean Territories","ISO_A3":"-99"}},{"type":"Point","coordinates":[72.40384500280692,-7.302263210102632],"properties":{"GEOID":"IO","ADMIN":"British Indian Ocean Territory","NAME":"Br. Indian Ocean Ter.","NAME_LONG":"British Indian Ocean Territory","FORMAL_EN":"","NAME_SORT":"British Indian Ocean Territory","ISO_A3":"IOT"}},{"type":"Point","coordinates":[-7.918846196049817,53.086216717517516],"properties":{"GEOID":"IE","ADMIN":"Ireland","NAME":"Ireland","NAME_LONG":"Ireland","FORMAL_EN":"Ireland","NAME_SORT":"Ireland","ISO_A3":"IRL"}},{"type":"Point","coordinates":[54.9331742823589,32.185310130928244],"properties":{"GEOID":"IR","ADMIN":"Iran","NAME":"Iran","NAME_LONG":"Iran","FORMAL_EN":"Islamic Republic of Iran","NAME_SORT":"Iran, Islamic Rep.","ISO_A3":"IRN"}},{"type":"Point","coordinates":[43.26107868142373,33.09641556170445],"properties":{"GEOID":"IQ","ADMIN":"Iraq","NAME":"Iraq","NAME_LONG":"Iraq","FORMAL_EN":"Republic of Iraq","NAME_SORT":"Iraq","ISO_A3":"IRQ"}},{"type":"Point","coordinates":[-18.704263142791618,64.5364452489978],"properties":{"GEOID":"IS","ADMIN":"Iceland","NAME":"Iceland","NAME_LONG":"Iceland","FORMAL_EN":"Republic of Iceland","NAME_SORT":"Iceland","ISO_A3":"ISL"}},{"type":"Point","coordinates":[34.84774337951749,30.910442471503224],"properties":{"GEOID":"IL","ADMIN":"Israel","NAME":"Israel","NAME_LONG":"Israel","FORMAL_EN":"State of Israel","NAME_SORT":"Israel","ISO_A3":"ISR"}},{"type":"Point","coordinates":[11.579520792327218,43.58472580262362],"properties":{"GEOID":"IT","ADMIN":"Italy","NAME":"Italy","NAME_LONG":"Italy","FORMAL_EN":"Italian Republic","NAME_SORT":"Italy","ISO_A3":"ITA"}},{"type":"Point","coordinates":[-77.31871766687607,18.13622442084184],"properties":{"GEOID":"JM","ADMIN":"Jamaica","NAME":"Jamaica","NAME_LONG":"Jamaica","FORMAL_EN":"Jamaica","NAME_SORT":"Jamaica","ISO_A3":"JAM"}},{"type":"Point","coordinates":[-2.1234238243252563,49.220240670506016],"properties":{"GEOID":"JE","ADMIN":"Jersey","NAME":"Jersey","NAME_LONG":"Jersey","FORMAL_EN":"Bailiwick of Jersey","NAME_SORT":"Jersey","ISO_A3":"JEY"}},{"type":"Point","coordinates":[36.440398127196616,30.721732806266303],"properties":{"GEOID":"JO","ADMIN":"Jordan","NAME":"Jordan","NAME_LONG":"Jordan","FORMAL_EN":"Hashemite Kingdom of Jordan","NAME_SORT":"Jordan","ISO_A3":"JOR"}},{"type":"Point","coordinates":[138.52654187597722,36.19099118993786],"properties":{"GEOID":"JP","ADMIN":"Japan","NAME":"Japan","NAME_LONG":"Japan","FORMAL_EN":"Japan","NAME_SORT":"Japan","ISO_A3":"JPN"}},{"type":"Point","coordinates":[63.38382191698182,45.97729505955931],"properties":{"GEOID":"-99","ADMIN":"Baykonur Cosmodrome","NAME":"Baikonur","NAME_LONG":"Baikonur Cosmodrome","FORMAL_EN":"","NAME_SORT":"Baikonur Cosmodrome","ISO_A3":"-99"}},{"type":"Point","coordinates":[77.13029441400948,35.34212449516512],"properties":{"GEOID":"-99","ADMIN":"Siachen Glacier","NAME":"Siachen Glacier","NAME_LONG":"Siachen Glacier","FORMAL_EN":"","NAME_SORT":"Kashmir","ISO_A3":"-99"}},{"type":"Point","coordinates":[69.31464640667164,48.43817569338138],"properties":{"GEOID":"KZ","ADMIN":"Kazakhstan","NAME":"Kazakhstan","NAME_LONG":"Kazakhstan","FORMAL_EN":"Republic of Kazakhstan","NAME_SORT":"Kazakhstan","ISO_A3":"KAZ"}},{"type":"Point","coordinates":[37.82257504396844,0.42809897915559036],"properties":{"GEOID":"KE","ADMIN":"Kenya","NAME":"Kenya","NAME_LONG":"Kenya","FORMAL_EN":"Republic of Kenya","NAME_SORT":"Kenya","ISO_A3":"KEN"}},{"type":"Point","coordinates":[74.4464709375965,41.64922142841332],"properties":{"GEOID":"KG","ADMIN":"Kyrgyzstan","NAME":"Kyrgyzstan","NAME_LONG":"Kyrgyzstan","FORMAL_EN":"Kyrgyz Republic","NAME_SORT":"Kyrgyz Republic","ISO_A3":"KGZ"}},{"type":"Point","coordinates":[104.46384477214576,12.629480511377443],"properties":{"GEOID":"KH","ADMIN":"Cambodia","NAME":"Cambodia","NAME_LONG":"Cambodia","FORMAL_EN":"Kingdom of Cambodia","NAME_SORT":"Cambodia","ISO_A3":"KHM"}},{"type":"Point","coordinates":[-157.40361996065087,1.8411601754691147],"properties":{"GEOID":"KI","ADMIN":"Kiribati","NAME":"Kiribati","NAME_LONG":"Kiribati","FORMAL_EN":"Republic of Kiribati","NAME_SORT":"Kiribati","ISO_A3":"KIR"}},{"type":"Point","coordinates":[-62.777412374935096,17.347148168839958],"properties":{"GEOID":"KN","ADMIN":"Saint Kitts and Nevis","NAME":"St. Kitts and Nevis","NAME_LONG":"Saint Kitts and Nevis","FORMAL_EN":"Federation of Saint Kitts and Nevis","NAME_SORT":"St. Kitts and Nevis","ISO_A3":"KNA"}},{"type":"Point","coordinates":[128.12435403022744,36.460636284880366],"properties":{"GEOID":"KR","ADMIN":"South Korea","NAME":"Korea","NAME_LONG":"Republic of Korea","FORMAL_EN":"Republic of Korea","NAME_SORT":"Korea, Rep.","ISO_A3":"KOR"}},{"type":"Point","coordinates":[20.860608752421783,42.593444144300065],"properties":{"GEOID":"XK","ADMIN":"Kosovo","NAME":"Kosovo","NAME_LONG":"Kosovo","FORMAL_EN":"Republic of Kosovo","NAME_SORT":"Kosovo","ISO_A3":"-99"}},{"type":"Point","coordinates":[47.32866025258125,29.45770560154721],"properties":{"GEOID":"KW","ADMIN":"Kuwait","NAME":"Kuwait","NAME_LONG":"Kuwait","FORMAL_EN":"State of Kuwait","NAME_SORT":"Kuwait","ISO_A3":"KWT"}},{"type":"Point","coordinates":[102.53504970302367,19.44019699983142],"properties":{"GEOID":"LA","ADMIN":"Laos","NAME":"Lao PDR","NAME_LONG":"Lao PDR","FORMAL_EN":"Lao People's Democratic Republic","NAME_SORT":"Lao PDR","ISO_A3":"LAO"}},{"type":"Point","coordinates":[35.99186262856325,34.12566710987419],"properties":{"GEOID":"LB","ADMIN":"Lebanon","NAME":"Lebanon","NAME_LONG":"Lebanon","FORMAL_EN":"Lebanese Republic","NAME_SORT":"Lebanon","ISO_A3":"LBN"}},{"type":"Point","coordinates":[-9.351420213637242,6.406328796552137],"properties":{"GEOID":"LR","ADMIN":"Liberia","NAME":"Liberia","NAME_LONG":"Liberia","FORMAL_EN":"Republic of Liberia","NAME_SORT":"Liberia","ISO_A3":"LBR"}},{"type":"Point","coordinates":[18.011035645638398,26.642669224701777],"properties":{"GEOID":"LY","ADMIN":"Libya","NAME":"Libya","NAME_LONG":"Libya","FORMAL_EN":"Libya","NAME_SORT":"Libya","ISO_A3":"LBY"}},{"type":"Point","coordinates":[-60.97956119311426,13.891353058929298],"properties":{"GEOID":"LC","ADMIN":"Saint Lucia","NAME":"Saint Lucia","NAME_LONG":"Saint Lucia","FORMAL_EN":"Saint Lucia","NAME_SORT":"St. Lucia","ISO_A3":"LCA"}},{"type":"Point","coordinates":[9.547295347601084,47.13660129435247],"properties":{"GEOID":"LI","ADMIN":"Liechtenstein","NAME":"Liechtenstein","NAME_LONG":"Liechtenstein","FORMAL_EN":"Principality of Liechtenstein","NAME_SORT":"Liechtenstein","ISO_A3":"LIE"}},{"type":"Point","coordinates":[80.70473858316,7.57458717580661],"properties":{"GEOID":"LK","ADMIN":"Sri Lanka","NAME":"Sri Lanka","NAME_LONG":"Sri Lanka","FORMAL_EN":"Democratic Socialist Republic of Sri Lanka","NAME_SORT":"Sri Lanka","ISO_A3":"LKA"}},{"type":"Point","coordinates":[28.209948406063482,-29.4906730120865],"properties":{"GEOID":"LS","ADMIN":"Lesotho","NAME":"Lesotho","NAME_LONG":"Lesotho","FORMAL_EN":"Kingdom of Lesotho","NAME_SORT":"Lesotho","ISO_A3":"LSO"}},{"type":"Point","coordinates":[24.133868577448727,55.10743661961464],"properties":{"GEOID":"LT","ADMIN":"Lithuania","NAME":"Lithuania","NAME_LONG":"Lithuania","FORMAL_EN":"Republic of Lithuania","NAME_SORT":"Lithuania","ISO_A3":"LTU"}},{"type":"Point","coordinates":[6.065957136345713,49.759236313976515],"properties":{"GEOID":"LU","ADMIN":"Luxembourg","NAME":"Luxembourg","NAME_LONG":"Luxembourg","FORMAL_EN":"Grand Duchy of Luxembourg","NAME_SORT":"Luxembourg","ISO_A3":"LUX"}},{"type":"Point","coordinates":[25.454955614140015,57.07426888458293],"properties":{"GEOID":"LV","ADMIN":"Latvia","NAME":"Latvia","NAME_LONG":"Latvia","FORMAL_EN":"Republic of Latvia","NAME_SORT":"Latvia","ISO_A3":"LVA"}},{"type":"Point","coordinates":[113.55078432935143,22.138719565598922],"properties":{"GEOID":"MO","ADMIN":"Macao S.A.R","NAME":"Macao","NAME_LONG":"Macao","FORMAL_EN":"Macao Special Administrative Region, PRC","NAME_SORT":"Macao SAR, China","ISO_A3":"MAC"}},{"type":"Point","coordinates":[-63.0506456911969,18.07923253618494],"properties":{"GEOID":"MF","ADMIN":"Saint Martin","NAME":"St-Martin","NAME_LONG":"Saint-Martin","FORMAL_EN":"Saint-Martin (French part)","NAME_SORT":"St. Martin (French part)","ISO_A3":"MAF"}},{"type":"Point","coordinates":[-7.190590702644684,31.640570530244467],"properties":{"GEOID":"MA","ADMIN":"Morocco","NAME":"Morocco","NAME_LONG":"Morocco","FORMAL_EN":"Kingdom of Morocco","NAME_SORT":"Morocco","ISO_A3":"MAR"}},{"type":"Point","coordinates":[7.4048875694566165,43.74167164504649],"properties":{"GEOID":"MC","ADMIN":"Monaco","NAME":"Monaco","NAME_LONG":"Monaco","FORMAL_EN":"Principality of Monaco","NAME_SORT":"Monaco","ISO_A3":"MCO"}},{"type":"Point","coordinates":[28.488519658229535,47.42642380731456],"properties":{"GEOID":"MD","ADMIN":"Moldova","NAME":"Moldova","NAME_LONG":"Moldova","FORMAL_EN":"Republic of Moldova","NAME_SORT":"Moldova","ISO_A3":"MDA"}},{"type":"Point","coordinates":[46.7010945028577,-18.613649329063893],"properties":{"GEOID":"MG","ADMIN":"Madagascar","NAME":"Madagascar","NAME_LONG":"Madagascar","FORMAL_EN":"Republic of Madagascar","NAME_SORT":"Madagascar","ISO_A3":"MDG"}},{"type":"Point","coordinates":[73.53237485465286,4.2015085269892865],"properties":{"GEOID":"MV","ADMIN":"Maldives","NAME":"Maldives","NAME_LONG":"Maldives","FORMAL_EN":"Republic of Maldives","NAME_SORT":"Maldives","ISO_A3":"MDV"}},{"type":"Point","coordinates":[-102.28165194914216,23.923742937006097],"properties":{"GEOID":"MX","ADMIN":"Mexico","NAME":"Mexico","NAME_LONG":"Mexico","FORMAL_EN":"United Mexican States","NAME_SORT":"Mexico","ISO_A3":"MEX"}},{"type":"Point","coordinates":[171.14681721879992,7.102490577372784],"properties":{"GEOID":"MH","ADMIN":"Marshall Islands","NAME":"Marshall Is.","NAME_LONG":"Marshall Islands","FORMAL_EN":"Republic of the Marshall Islands","NAME_SORT":"Marshall Islands","ISO_A3":"MHL"}},{"type":"Point","coordinates":[21.553917884515403,41.561953321232096],"properties":{"GEOID":"MK","ADMIN":"Macedonia","NAME":"Macedonia","NAME_LONG":"Macedonia","FORMAL_EN":"Former Yugoslav Republic of Macedonia","NAME_SORT":"Macedonia, FYR","ISO_A3":"MKD"}},{"type":"Point","coordinates":[-2.0408034784064712,18.69396262709801],"properties":{"GEOID":"ML","ADMIN":"Mali","NAME":"Mali","NAME_LONG":"Mali","FORMAL_EN":"Republic of Mali","NAME_SORT":"Mali","ISO_A3":"MLI"}},{"type":"Point","coordinates":[14.441275592811515,35.889721535936275],"properties":{"GEOID":"MT","ADMIN":"Malta","NAME":"Malta","NAME_LONG":"Malta","FORMAL_EN":"Republic of Malta","NAME_SORT":"Malta","ISO_A3":"MLT"}},{"type":"Point","coordinates":[95.80714696663095,21.590658650243164],"properties":{"GEOID":"MM","ADMIN":"Myanmar","NAME":"Myanmar","NAME_LONG":"Myanmar","FORMAL_EN":"Republic of the Union of Myanmar","NAME_SORT":"Myanmar","ISO_A3":"MMR"}},{"type":"Point","coordinates":[19.173151379403432,42.82208780969006],"properties":{"GEOID":"ME","ADMIN":"Montenegro","NAME":"Montenegro","NAME_LONG":"Montenegro","FORMAL_EN":"Montenegro","NAME_SORT":"Montenegro","ISO_A3":"MNE"}},{"type":"Point","coordinates":[104.14946138936527,45.99196965594963],"properties":{"GEOID":"MN","ADMIN":"Mongolia","NAME":"Mongolia","NAME_LONG":"Mongolia","FORMAL_EN":"Mongolia","NAME_SORT":"Mongolia","ISO_A3":"MNG"}},{"type":"Point","coordinates":[145.73731022780802,15.183822129547494],"properties":{"GEOID":"MP","ADMIN":"Northern Mariana Islands","NAME":"N. Mariana Is.","NAME_LONG":"Northern Mariana Islands","FORMAL_EN":"Commonwealth of the Northern Mariana Islands","NAME_SORT":"Northern Mariana Islands","ISO_A3":"MNP"}},{"type":"Point","coordinates":[37.834467864764136,-13.957735116221944],"properties":{"GEOID":"MZ","ADMIN":"Mozambique","NAME":"Mozambique","NAME_LONG":"Mozambique","FORMAL_EN":"Republic of Mozambique","NAME_SORT":"Mozambique","ISO_A3":"MOZ"}},{"type":"Point","coordinates":[-9.737724044378917,19.586281095029946],"properties":{"GEOID":"MR","ADMIN":"Mauritania","NAME":"Mauritania","NAME_LONG":"Mauritania","FORMAL_EN":"Islamic Republic of Mauritania","NAME_SORT":"Mauritania","ISO_A3":"MRT"}},{"type":"Point","coordinates":[-62.18702505840685,16.72901719857594],"properties":{"GEOID":"MS","ADMIN":"Montserrat","NAME":"Montserrat","NAME_LONG":"Montserrat","FORMAL_EN":"","NAME_SORT":"Montserrat","ISO_A3":"MSR"}},{"type":"Point","coordinates":[57.565476006243024,-20.296731797507864],"properties":{"GEOID":"MU","ADMIN":"Mauritius","NAME":"Mauritius","NAME_LONG":"Mauritius","FORMAL_EN":"Republic of Mauritius","NAME_SORT":"Mauritius","ISO_A3":"MUS"}},{"type":"Point","coordinates":[33.64909931099202,-13.39049546073727],"properties":{"GEOID":"MW","ADMIN":"Malawi","NAME":"Malawi","NAME_LONG":"Malawi","FORMAL_EN":"Republic of Malawi","NAME_SORT":"Malawi","ISO_A3":"MWI"}},{"type":"Point","coordinates":[113.8376563245095,2.5297656625945897],"properties":{"GEOID":"MY","ADMIN":"Malaysia","NAME":"Malaysia","NAME_LONG":"Malaysia","FORMAL_EN":"Malaysia","NAME_SORT":"Malaysia","ISO_A3":"MYS"}},{"type":"Point","coordinates":[17.106929809840373,-20.593100506107795],"properties":{"GEOID":"NA","ADMIN":"Namibia","NAME":"Namibia","NAME_LONG":"Namibia","FORMAL_EN":"Republic of Namibia","NAME_SORT":"Namibia","ISO_A3":"NAM"}},{"type":"Point","coordinates":[165.10844746565752,-21.06970998720996],"properties":{"GEOID":"NC","ADMIN":"New Caledonia","NAME":"New Caledonia","NAME_LONG":"New Caledonia","FORMAL_EN":"New Caledonia","NAME_SORT":"New Caledonia","ISO_A3":"NCL"}},{"type":"Point","coordinates":[9.507403040587258,17.44491363197351],"properties":{"GEOID":"NE","ADMIN":"Niger","NAME":"Niger","NAME_LONG":"Niger","FORMAL_EN":"Republic of Niger","NAME_SORT":"Niger","ISO_A3":"NER"}},{"type":"Point","coordinates":[167.95286897228215,-29.0353039358855],"properties":{"GEOID":"NF","ADMIN":"Norfolk Island","NAME":"Norfolk Island","NAME_LONG":"Norfolk Island","FORMAL_EN":"Territory of Norfolk Island","NAME_SORT":"Norfolk Island","ISO_A3":"NFK"}},{"type":"Point","coordinates":[7.497381984757049,9.42358965229603],"properties":{"GEOID":"NG","ADMIN":"Nigeria","NAME":"Nigeria","NAME_LONG":"Nigeria","FORMAL_EN":"Federal Republic of Nigeria","NAME_SORT":"Nigeria","ISO_A3":"NGA"}},{"type":"Point","coordinates":[-85.06965261941161,12.671071591348387],"properties":{"GEOID":"NI","ADMIN":"Nicaragua","NAME":"Nicaragua","NAME_LONG":"Nicaragua","FORMAL_EN":"Republic of Nicaragua","NAME_SORT":"Nicaragua","ISO_A3":"NIC"}},{"type":"Point","coordinates":[-169.86455023760422,-19.044513287907513],"properties":{"GEOID":"NU","ADMIN":"Niue","NAME":"Niue","NAME_LONG":"Niue","FORMAL_EN":"","NAME_SORT":"Niue","ISO_A3":"NIU"}},{"type":"Point","coordinates":[5.610185013415838,52.42189209755177],"properties":{"GEOID":"NL","ADMIN":"Netherlands","NAME":"Netherlands","NAME_LONG":"Netherlands","FORMAL_EN":"Kingdom of the Netherlands","NAME_SORT":"Netherlands","ISO_A3":"NLD"}},{"type":"Point","coordinates":[9.478889292629074,61.237271625433365],"properties":{"GEOID":"NO","ADMIN":"Norway","NAME":"Norway","NAME_LONG":"Norway","FORMAL_EN":"Kingdom of Norway","NAME_SORT":"Norway","ISO_A3":"NOR"}},{"type":"Point","coordinates":[83.63972361291003,28.300592476847108],"properties":{"GEOID":"NP","ADMIN":"Nepal","NAME":"Nepal","NAME_LONG":"Nepal","FORMAL_EN":"Nepal","NAME_SORT":"Nepal","ISO_A3":"NPL"}},{"type":"Point","coordinates":[166.93191143423124,-0.5149609419150656],"properties":{"GEOID":"NR","ADMIN":"Nauru","NAME":"Nauru","NAME_LONG":"Nauru","FORMAL_EN":"Republic of Nauru","NAME_SORT":"Nauru","ISO_A3":"NRU"}},{"type":"Point","coordinates":[169.14412791310363,-45.23320294034852],"properties":{"GEOID":"NZ","ADMIN":"New Zealand","NAME":"New Zealand","NAME_LONG":"New Zealand","FORMAL_EN":"New Zealand","NAME_SORT":"New Zealand","ISO_A3":"NZL"}},{"type":"Point","coordinates":[57.34004789443411,22.120544642061258],"properties":{"GEOID":"OM","ADMIN":"Oman","NAME":"Oman","NAME_LONG":"Oman","FORMAL_EN":"Sultanate of Oman","NAME_SORT":"Oman","ISO_A3":"OMN"}},{"type":"Point","coordinates":[68.78098128025563,29.432624046753865],"properties":{"GEOID":"PK","ADMIN":"Pakistan","NAME":"Pakistan","NAME_LONG":"Pakistan","FORMAL_EN":"Islamic Republic of Pakistan","NAME_SORT":"Pakistan","ISO_A3":"PAK"}},{"type":"Point","coordinates":[-80.30564409785414,8.721027923304968],"properties":{"GEOID":"PA","ADMIN":"Panama","NAME":"Panama","NAME_LONG":"Panama","FORMAL_EN":"Republic of Panama","NAME_SORT":"Panama","ISO_A3":"PAN"}},{"type":"Point","coordinates":[-128.31651681671224,-24.366425013818386],"properties":{"GEOID":"PN","ADMIN":"Pitcairn Islands","NAME":"Pitcairn Is.","NAME_LONG":"Pitcairn Islands","FORMAL_EN":"Pitcairn, Henderson, Ducie and Oeno Islands","NAME_SORT":"Pitcairn Islands","ISO_A3":"PCN"}},{"type":"Point","coordinates":[-72.89379928793223,-12.992974985585112],"properties":{"GEOID":"PE","ADMIN":"Peru","NAME":"Peru","NAME_LONG":"Peru","FORMAL_EN":"Republic of Peru","NAME_SORT":"Peru","ISO_A3":"PER"}},{"type":"Point","coordinates":[115.82106089548898,10.730204392529014],"properties":{"GEOID":"-99","ADMIN":"Spratly Islands","NAME":"Spratly Is.","NAME_LONG":"Spratly Islands","FORMAL_EN":"","NAME_SORT":"Spratly Islands","ISO_A3":"-99"}},{"type":"Point","coordinates":[121.38404866032333,17.006723247503032],"properties":{"GEOID":"PH","ADMIN":"Philippines","NAME":"Philippines","NAME_LONG":"Philippines","FORMAL_EN":"Republic of the Philippines","NAME_SORT":"Philippines","ISO_A3":"PHL"}},{"type":"Point","coordinates":[134.58018571367683,7.52019595824733],"properties":{"GEOID":"PW","ADMIN":"Palau","NAME":"Palau","NAME_LONG":"Palau","FORMAL_EN":"Republic of Palau","NAME_SORT":"Palau","ISO_A3":"PLW"}},{"type":"Point","coordinates":[143.90883101809422,-5.69436361683117],"properties":{"GEOID":"PG","ADMIN":"Papua New Guinea","NAME":"Papua New Guinea","NAME_LONG":"Papua New Guinea","FORMAL_EN":"Independent State of Papua New Guinea","NAME_SORT":"Papua New Guinea","ISO_A3":"PNG"}},{"type":"Point","coordinates":[20.39599343668373,51.90018036214812],"properties":{"GEOID":"PL","ADMIN":"Poland","NAME":"Poland","NAME_LONG":"Poland","FORMAL_EN":"Republic of Poland","NAME_SORT":"Poland","ISO_A3":"POL"}},{"type":"Point","coordinates":[-66.47868998565092,18.23397018789625],"properties":{"GEOID":"PR","ADMIN":"Puerto Rico","NAME":"Puerto Rico","NAME_LONG":"Puerto Rico","FORMAL_EN":"Commonwealth of Puerto Rico","NAME_SORT":"Puerto Rico","ISO_A3":"PRI"}},{"type":"Point","coordinates":[126.4399527559129,39.885386680967244],"properties":{"GEOID":"KP","ADMIN":"North Korea","NAME":"Dem. Rep. Korea","NAME_LONG":"Dem. Rep. Korea","FORMAL_EN":"Democratic People's Republic of Korea","NAME_SORT":"Korea, Dem. Rep.","ISO_A3":"PRK"}},{"type":"Point","coordinates":[-8.274777702494351,39.30683261390945],"properties":{"GEOID":"PT","ADMIN":"Portugal","NAME":"Portugal","NAME_LONG":"Portugal","FORMAL_EN":"Portuguese Republic","NAME_SORT":"Portugal","ISO_A3":"PRT"}},{"type":"Point","coordinates":[-60.14856504536583,-21.675961539073363],"properties":{"GEOID":"PY","ADMIN":"Paraguay","NAME":"Paraguay","NAME_LONG":"Paraguay","FORMAL_EN":"Republic of Paraguay","NAME_SORT":"Paraguay","ISO_A3":"PRY"}},{"type":"Point","coordinates":[35.25121814611538,32.07315205013298],"properties":{"GEOID":"PS","ADMIN":"Palestine","NAME":"Palestine","NAME_LONG":"Palestine","FORMAL_EN":"West Bank and Gaza","NAME_SORT":"Palestine (West Bank and Gaza)","ISO_A3":"PSE"}},{"type":"Point","coordinates":[-149.45764788252126,-17.629090510651835],"properties":{"GEOID":"PF","ADMIN":"French Polynesia","NAME":"Fr. Polynesia","NAME_LONG":"French Polynesia","FORMAL_EN":"French Polynesia","NAME_SORT":"French Polynesia","ISO_A3":"PYF"}},{"type":"Point","coordinates":[51.14007503343401,25.33169594419183],"properties":{"GEOID":"QA","ADMIN":"Qatar","NAME":"Qatar","NAME_LONG":"Qatar","FORMAL_EN":"State of Qatar","NAME_SORT":"Qatar","ISO_A3":"QAT"}},{"type":"Point","coordinates":[24.974508578148196,45.73301066858944],"properties":{"GEOID":"RO","ADMIN":"Romania","NAME":"Romania","NAME_LONG":"Romania","FORMAL_EN":"Romania","NAME_SORT":"Romania","ISO_A3":"ROU"}},{"type":"Point","coordinates":[93.83667058284274,63.206322892470084],"properties":{"GEOID":"RU","ADMIN":"Russia","NAME":"Russia","NAME_LONG":"Russian Federation","FORMAL_EN":"Russian Federation","NAME_SORT":"Russian Federation","ISO_A3":"RUS"}},{"type":"Point","coordinates":[30.10368826860893,-1.8962226870877064],"properties":{"GEOID":"RW","ADMIN":"Rwanda","NAME":"Rwanda","NAME_LONG":"Rwanda","FORMAL_EN":"Republic of Rwanda","NAME_SORT":"Rwanda","ISO_A3":"RWA"}},{"type":"Point","coordinates":[-12.627027229248222,23.967094638429593],"properties":{"GEOID":"EH","ADMIN":"Western Sahara","NAME":"W. Sahara","NAME_LONG":"Western Sahara","FORMAL_EN":"Sahrawi Arab Democratic Republic","NAME_SORT":"Western Sahara","ISO_A3":"ESH"}},{"type":"Point","coordinates":[44.69668195452157,23.794564728508618],"properties":{"GEOID":"SA","ADMIN":"Saudi Arabia","NAME":"Saudi Arabia","NAME_LONG":"Saudi Arabia","FORMAL_EN":"Kingdom of Saudi Arabia","NAME_SORT":"Saudi Arabia","ISO_A3":"SAU"}},{"type":"Point","coordinates":[117.75382368487914,15.152323730432563],"properties":{"GEOID":"-99","ADMIN":"Scarborough Reef","NAME":"Scarborough Reef","NAME_LONG":"Scarborough Reef","FORMAL_EN":"","NAME_SORT":"","ISO_A3":"-99"}},{"type":"Point","coordinates":[29.264165420322467,16.332806572369336],"properties":{"GEOID":"SD","ADMIN":"Sudan","NAME":"Sudan","NAME_LONG":"Sudan","FORMAL_EN":"Republic of the Sudan","NAME_SORT":"Sudan","ISO_A3":"SDN"}},{"type":"Point","coordinates":[30.39269460501971,7.223705165306905],"properties":{"GEOID":"SS","ADMIN":"South Sudan","NAME":"S. Sudan","NAME_LONG":"South Sudan","FORMAL_EN":"Republic of South Sudan","NAME_SORT":"South Sudan","ISO_A3":"SSD"}},{"type":"Point","coordinates":[-14.779914363819666,15.140246463959333],"properties":{"GEOID":"SN","ADMIN":"Senegal","NAME":"Senegal","NAME_LONG":"Senegal","FORMAL_EN":"Republic of Senegal","NAME_SORT":"Senegal","ISO_A3":"SEN"}},{"type":"Point","coordinates":[-78.63801024653831,15.864758378226206],"properties":{"GEOID":"-99","ADMIN":"Serranilla Bank","NAME":"Serranilla Bank","NAME_LONG":"Serranilla Bank","FORMAL_EN":"","NAME_SORT":"Serranilla Bank","ISO_A3":"-99"}},{"type":"Point","coordinates":[103.81500868828468,1.3575590054456241],"properties":{"GEOID":"SG","ADMIN":"Singapore","NAME":"Singapore","NAME_LONG":"Singapore","FORMAL_EN":"Republic of Singapore","NAME_SORT":"Singapore","ISO_A3":"SGP"}},{"type":"Point","coordinates":[-36.93810027185908,-54.2044499470221],"properties":{"GEOID":"GS","ADMIN":"South Georgia and South Sandwich Islands","NAME":"S. Geo. and S. Sandw. Is.","NAME_LONG":"South Georgia and South Sandwich Islands","FORMAL_EN":"South Georgia and South Sandwich Islands","NAME_SORT":"South Georgia and the Islands","ISO_A3":"SGS"}},{"type":"Point","coordinates":[-5.71936382492274,-15.957087357718914],"properties":{"GEOID":"SH","ADMIN":"Saint Helena","NAME":"Saint Helena","NAME_LONG":"Saint Helena","FORMAL_EN":"","NAME_SORT":"St. Helena","ISO_A3":"SHN"}},{"type":"Point","coordinates":[159.19619049399682,-8.0492495674056],"properties":{"GEOID":"SB","ADMIN":"Solomon Islands","NAME":"Solomon Is.","NAME_LONG":"Solomon Islands","FORMAL_EN":"","NAME_SORT":"Solomon Islands","ISO_A3":"SLB"}},{"type":"Point","coordinates":[-11.790180516801252,8.556609810598308],"properties":{"GEOID":"SL","ADMIN":"Sierra Leone","NAME":"Sierra Leone","NAME_LONG":"Sierra Leone","FORMAL_EN":"Republic of Sierra Leone","NAME_SORT":"Sierra Leone","ISO_A3":"SLE"}},{"type":"Point","coordinates":[-88.85168179128723,13.699948303495797],"properties":{"GEOID":"SV","ADMIN":"El Salvador","NAME":"El Salvador","NAME_LONG":"El Salvador","FORMAL_EN":"Republic of El Salvador","NAME_SORT":"El Salvador","ISO_A3":"SLV"}},{"type":"Point","coordinates":[12.429677372549847,43.93077315909541],"properties":{"GEOID":"SM","ADMIN":"San Marino","NAME":"San Marino","NAME_LONG":"San Marino","FORMAL_EN":"Republic of San Marino","NAME_SORT":"San Marino","ISO_A3":"SMR"}},{"type":"Point","coordinates":[46.256407900152205,9.513887401889374],"properties":{"GEOID":"-99","ADMIN":"Somaliland","NAME":"Somaliland","NAME_LONG":"Somaliland","FORMAL_EN":"Republic of Somaliland","NAME_SORT":"Somaliland","ISO_A3":"-99"}},{"type":"Point","coordinates":[44.04349573357147,3.2735509960916866],"properties":{"GEOID":"SO","ADMIN":"Somalia","NAME":"Somalia","NAME_LONG":"Somalia","FORMAL_EN":"Federal Republic of Somalia","NAME_SORT":"Somalia","ISO_A3":"SOM"}},{"type":"Point","coordinates":[-56.31170316144677,47.02812501094678],"properties":{"GEOID":"PM","ADMIN":"Saint Pierre and Miquelon","NAME":"St. Pierre and Miquelon","NAME_LONG":"Saint Pierre and Miquelon","FORMAL_EN":"Saint Pierre and Miquelon","NAME_SORT":"St. Pierre and Miquelon","ISO_A3":"SPM"}},{"type":"Point","coordinates":[20.58701160616226,44.25053959768488],"properties":{"GEOID":"RS","ADMIN":"Republic of Serbia","NAME":"Serbia","NAME_LONG":"Serbia","FORMAL_EN":"Republic of Serbia","NAME_SORT":"Serbia","ISO_A3":"SRB"}},{"type":"Point","coordinates":[6.595348259524214,0.23457939318869103],"properties":{"GEOID":"ST","ADMIN":"Sao Tome and Principe","NAME":"São Tomé and Principe","NAME_LONG":"São Tomé and Principe","FORMAL_EN":"Democratic Republic of São Tomé and Principe","NAME_SORT":"São Tomé and Principe","ISO_A3":"STP"}},{"type":"Point","coordinates":[-55.94935919222962,4.161725817760207],"properties":{"GEOID":"SR","ADMIN":"Suriname","NAME":"Suriname","NAME_LONG":"Suriname","FORMAL_EN":"Republic of Suriname","NAME_SORT":"Suriname","ISO_A3":"SUR"}},{"type":"Point","coordinates":[19.05013253971545,48.7337831542602],"properties":{"GEOID":"SK","ADMIN":"Slovakia","NAME":"Slovakia","NAME_LONG":"Slovakia","FORMAL_EN":"Slovak Republic","NAME_SORT":"Slovak Republic","ISO_A3":"SVK"}},{"type":"Point","coordinates":[14.93802339627611,46.06468250497142],"properties":{"GEOID":"SI","ADMIN":"Slovenia","NAME":"Slovenia","NAME_LONG":"Slovenia","FORMAL_EN":"Republic of Slovenia","NAME_SORT":"Slovenia","ISO_A3":"SVN"}},{"type":"Point","coordinates":[16.30509265063843,64.31559941245087],"properties":{"GEOID":"SE","ADMIN":"Sweden","NAME":"Sweden","NAME_LONG":"Sweden","FORMAL_EN":"Kingdom of Sweden","NAME_SORT":"Sweden","ISO_A3":"SWE"}},{"type":"Point","coordinates":[31.467629433386126,-26.533586796182696],"properties":{"GEOID":"SZ","ADMIN":"Swaziland","NAME":"Swaziland","NAME_LONG":"Swaziland","FORMAL_EN":"Kingdom of Swaziland","NAME_SORT":"Swaziland","ISO_A3":"SWZ"}},{"type":"Point","coordinates":[-63.0820665193621,18.04503324943213],"properties":{"GEOID":"SX","ADMIN":"Sint Maarten","NAME":"Sint Maarten","NAME_LONG":"Sint Maarten","FORMAL_EN":"Sint Maarten (Dutch part)","NAME_SORT":"St. Maarten (Dutch part)","ISO_A3":"SXM"}},{"type":"Point","coordinates":[46.45035967399202,-9.394899330955486],"properties":{"GEOID":"SC","ADMIN":"Seychelles","NAME":"Seychelles","NAME_LONG":"Seychelles","FORMAL_EN":"Republic of Seychelles","NAME_SORT":"Seychelles","ISO_A3":"SYC"}},{"type":"Point","coordinates":[38.277369810996845,35.00646146947209],"properties":{"GEOID":"SY","ADMIN":"Syria","NAME":"Syria","NAME_LONG":"Syria","FORMAL_EN":"Syrian Arab Republic","NAME_SORT":"Syrian Arab Republic","ISO_A3":"SYR"}},{"type":"Point","coordinates":[-71.71214334519735,21.812855431322518],"properties":{"GEOID":"TC","ADMIN":"Turks and Caicos Islands","NAME":"Turks and Caicos Is.","NAME_LONG":"Turks and Caicos Islands","FORMAL_EN":"Turks and Caicos Islands","NAME_SORT":"Turks and Caicos Islands","ISO_A3":"TCA"}},{"type":"Point","coordinates":[18.64454797732781,15.14328041235068],"properties":{"GEOID":"TD","ADMIN":"Chad","NAME":"Chad","NAME_LONG":"Chad","FORMAL_EN":"Republic of Chad","NAME_SORT":"Chad","ISO_A3":"TCD"}},{"type":"Point","coordinates":[1.0585907902572378,8.805894947373524],"properties":{"GEOID":"TG","ADMIN":"Togo","NAME":"Togo","NAME_LONG":"Togo","FORMAL_EN":"Togolese Republic","NAME_SORT":"Togo","ISO_A3":"TGO"}},{"type":"Point","coordinates":[101.06991648647497,15.460209765215687],"properties":{"GEOID":"TH","ADMIN":"Thailand","NAME":"Thailand","NAME_LONG":"Thailand","FORMAL_EN":"Kingdom of Thailand","NAME_SORT":"Thailand","ISO_A3":"THA"}},{"type":"Point","coordinates":[72.5883106614713,38.195395670325084],"properties":{"GEOID":"TJ","ADMIN":"Tajikistan","NAME":"Tajikistan","NAME_LONG":"Tajikistan","FORMAL_EN":"Republic of Tajikistan","NAME_SORT":"Tajikistan","ISO_A3":"TJK"}},{"type":"Point","coordinates":[58.67728880054248,39.86598022464128],"properties":{"GEOID":"TM","ADMIN":"Turkmenistan","NAME":"Turkmenistan","NAME_LONG":"Turkmenistan","FORMAL_EN":"Turkmenistan","NAME_SORT":"Turkmenistan","ISO_A3":"TKM"}},{"type":"Point","coordinates":[125.85583855604231,-8.803914545284307],"properties":{"GEOID":"TL","ADMIN":"East Timor","NAME":"Timor-Leste","NAME_LONG":"Timor-Leste","FORMAL_EN":"Democratic Republic of Timor-Leste","NAME_SORT":"Timor-Leste","ISO_A3":"TLS"}},{"type":"Point","coordinates":[-175.20488175084807,-21.179352321516497],"properties":{"GEOID":"TO","ADMIN":"Tonga","NAME":"Tonga","NAME_LONG":"Tonga","FORMAL_EN":"Kingdom of Tonga","NAME_SORT":"Tonga","ISO_A3":"TON"}},{"type":"Point","coordinates":[-61.2583914622974,10.418185161048527],"properties":{"GEOID":"TT","ADMIN":"Trinidad and Tobago","NAME":"Trinidad and Tobago","NAME_LONG":"Trinidad and Tobago","FORMAL_EN":"Republic of Trinidad and Tobago","NAME_SORT":"Trinidad and Tobago","ISO_A3":"TTO"}},{"type":"Point","coordinates":[9.006309105757385,33.684717235352736],"properties":{"GEOID":"TN","ADMIN":"Tunisia","NAME":"Tunisia","NAME_LONG":"Tunisia","FORMAL_EN":"Republic of Tunisia","NAME_SORT":"Tunisia","ISO_A3":"TUN"}},{"type":"Point","coordinates":[34.50650289233123,39.35176415334044],"properties":{"GEOID":"TR","ADMIN":"Turkey","NAME":"Turkey","NAME_LONG":"Turkey","FORMAL_EN":"Republic of Turkey","NAME_SORT":"Turkey","ISO_A3":"TUR"}},{"type":"Point","coordinates":[179.20780928383172,-8.51189294268541],"properties":{"GEOID":"TV","ADMIN":"Tuvalu","NAME":"Tuvalu","NAME_LONG":"Tuvalu","FORMAL_EN":"Tuvalu","NAME_SORT":"Tuvalu","ISO_A3":"TUV"}},{"type":"Point","coordinates":[120.86918185228262,23.659529106368012],"properties":{"GEOID":"TW","ADMIN":"Taiwan","NAME":"Taiwan","NAME_LONG":"Taiwan","FORMAL_EN":"","NAME_SORT":"Taiwan","ISO_A3":"TWN"}},{"type":"Point","coordinates":[34.80054785244413,-5.898243045531762],"properties":{"GEOID":"TZ","ADMIN":"United Republic of Tanzania","NAME":"Tanzania","NAME_LONG":"Tanzania","FORMAL_EN":"United Republic of Tanzania","NAME_SORT":"Tanzania","ISO_A3":"TZA"}},{"type":"Point","coordinates":[32.41759769280394,0.8990741494707075],"properties":{"GEOID":"UG","ADMIN":"Uganda","NAME":"Uganda","NAME_LONG":"Uganda","FORMAL_EN":"Republic of Uganda","NAME_SORT":"Uganda","ISO_A3":"UGA"}},{"type":"Point","coordinates":[32.27317047333656,49.34093055796325],"properties":{"GEOID":"UA","ADMIN":"Ukraine","NAME":"Ukraine","NAME_LONG":"Ukraine","FORMAL_EN":"Ukraine","NAME_SORT":"Ukraine","ISO_A3":"UKR"}},{"type":"Point","coordinates":[166.64592480343035,19.289524302568115],"properties":{"GEOID":"UM","ADMIN":"United States Minor Outlying Islands","NAME":"U.S. Minor Outlying Is.","NAME_LONG":"United States Minor Outlying Islands","FORMAL_EN":"","NAME_SORT":"United States Minor Outlying Islands","ISO_A3":"UMI"}},{"type":"Point","coordinates":[-55.967229860958746,-32.95795247514154],"properties":{"GEOID":"UY","ADMIN":"Uruguay","NAME":"Uruguay","NAME_LONG":"Uruguay","FORMAL_EN":"Oriental Republic of Uruguay","NAME_SORT":"Uruguay","ISO_A3":"URY"}},{"type":"Point","coordinates":[-101.10957475906645,39.22883289066931],"properties":{"GEOID":"US","ADMIN":"United States of America","NAME":"United States","NAME_LONG":"United States","FORMAL_EN":"United States of America","NAME_SORT":"United States of America","ISO_A3":"USA"}},{"type":"Point","coordinates":[-75.1955185207461,19.93643980185395],"properties":{"GEOID":"-99","ADMIN":"US Naval Base Guantanamo Bay","NAME":"USNB Guantanamo Bay","NAME_LONG":"US Naval Base Guantanamo Bay","FORMAL_EN":"","NAME_SORT":"Guantanamo Bay USNB","ISO_A3":"-99"}},{"type":"Point","coordinates":[63.98145630783856,41.70284585917299],"properties":{"GEOID":"UZ","ADMIN":"Uzbekistan","NAME":"Uzbekistan","NAME_LONG":"Uzbekistan","FORMAL_EN":"Republic of Uzbekistan","NAME_SORT":"Uzbekistan","ISO_A3":"UZB"}},{"type":"Point","coordinates":[12.4533974763803,41.903406751203555],"properties":{"GEOID":"VA","ADMIN":"Vatican","NAME":"Vatican","NAME_LONG":"Vatican","FORMAL_EN":"State of the Vatican City","NAME_SORT":"Vatican (Holy Sea)","ISO_A3":"VAT"}},{"type":"Point","coordinates":[-61.19410415639173,13.254195146764069],"properties":{"GEOID":"VC","ADMIN":"Saint Vincent and the Grenadines","NAME":"St. Vin. and Gren.","NAME_LONG":"Saint Vincent and the Grenadines","FORMAL_EN":"Saint Vincent and the Grenadines","NAME_SORT":"St. Vincent and the Grenadines","ISO_A3":"VCT"}},{"type":"Point","coordinates":[-64.59393391955048,7.187558362060143],"properties":{"GEOID":"VE","ADMIN":"Venezuela","NAME":"Venezuela","NAME_LONG":"Venezuela","FORMAL_EN":"Bolivarian Republic of Venezuela","NAME_SORT":"Venezuela, RB","ISO_A3":"VEN"}},{"type":"Point","coordinates":[-64.60338937137828,18.43330838228151],"properties":{"GEOID":"VG","ADMIN":"British Virgin Islands","NAME":"British Virgin Is.","NAME_LONG":"British Virgin Islands","FORMAL_EN":"British Virgin Islands","NAME_SORT":"British Virgin Islands","ISO_A3":"VGB"}},{"type":"Point","coordinates":[-64.79240568341619,17.743185930870826],"properties":{"GEOID":"VI","ADMIN":"United States Virgin Islands","NAME":"U.S. Virgin Is.","NAME_LONG":"United States Virgin Islands","FORMAL_EN":"Virgin Islands of the United States","NAME_SORT":"Virgin Islands (U.S.)","ISO_A3":"VIR"}},{"type":"Point","coordinates":[105.44442489082272,21.684308154105118],"properties":{"GEOID":"VN","ADMIN":"Vietnam","NAME":"Vietnam","NAME_LONG":"Vietnam","FORMAL_EN":"Socialist Republic of Vietnam","NAME_SORT":"Vietnam","ISO_A3":"VNM"}},{"type":"Point","coordinates":[166.85652728943967,-15.37498448936369],"properties":{"GEOID":"VU","ADMIN":"Vanuatu","NAME":"Vanuatu","NAME_LONG":"Vanuatu","FORMAL_EN":"Republic of Vanuatu","NAME_SORT":"Vanuatu","ISO_A3":"VUT"}},{"type":"Point","coordinates":[-176.16121908772283,-13.284065586188557],"properties":{"GEOID":"WF","ADMIN":"Wallis and Futuna","NAME":"Wallis and Futuna Is.","NAME_LONG":"Wallis and Futuna Islands","FORMAL_EN":"Wallis and Futuna Islands","NAME_SORT":"Wallis and Futuna","ISO_A3":"WLF"}},{"type":"Point","coordinates":[32.9670616602334,34.60541847398424],"properties":{"GEOID":"-99","ADMIN":"Akrotiri Sovereign Base Area","NAME":"Akrotiri","NAME_LONG":"Akrotiri","FORMAL_EN":"","NAME_SORT":"Akrotiri Sovereign Base Area","ISO_A3":"-99"}},{"type":"Point","coordinates":[-172.4370685956795,-13.638589738046912],"properties":{"GEOID":"WS","ADMIN":"Samoa","NAME":"Samoa","NAME_LONG":"Samoa","FORMAL_EN":"Independent State of Samoa","NAME_SORT":"Samoa","ISO_A3":"WSM"}},{"type":"Point","coordinates":[45.88352024766238,15.327534137587387],"properties":{"GEOID":"YE","ADMIN":"Yemen","NAME":"Yemen","NAME_LONG":"Yemen","FORMAL_EN":"Republic of Yemen","NAME_SORT":"Yemen, Rep.","ISO_A3":"YEM"}},{"type":"Point","coordinates":[23.229078262016216,-30.40751029041747],"properties":{"GEOID":"ZA","ADMIN":"South Africa","NAME":"South Africa","NAME_LONG":"South Africa","FORMAL_EN":"Republic of South Africa","NAME_SORT":"South Africa","ISO_A3":"ZAF"}},{"type":"Point","coordinates":[26.405500320559163,-14.661144582852062],"properties":{"GEOID":"ZM","ADMIN":"Zambia","NAME":"Zambia","NAME_LONG":"Zambia","FORMAL_EN":"Republic of Zambia","NAME_SORT":"Zambia","ISO_A3":"ZMB"}},{"type":"Point","coordinates":[29.925366741921472,-18.91834887274401],"properties":{"GEOID":"ZW","ADMIN":"Zimbabwe","NAME":"Zimbabwe","NAME_LONG":"Zimbabwe","FORMAL_EN":"Republic of Zimbabwe","NAME_SORT":"Zimbabwe","ISO_A3":"ZWE"}}]}}}