{"type":"Topology","arcs":[],"objects":{"ADMIN_DIV_1-ZA":{"type":"GeometryCollection","geometries":[{"type":"Point","coordinates":[26.681755711262173,-28.600613213683207],"properties":{"NAME":"Free State","GEOID":"FS"}},{"type":"Point","coordinates":[26.50224861049313,-32.18637332486885],"properties":{"NAME":"Eastern Cape","GEOID":"EC"}},{"type":"Point","coordinates":[28.05910668644863,-26.235231935540508],"properties":{"NAME":"Gauteng","GEOID":"GT"}},{"type":"Point","coordinates":[19.75503622615369,-33.597552776881],"properties":{"NAME":"Western Cape","GEOID":"WC"}},{"type":"Point","coordinates":[30.716581096269977,-28.455955618944763],"properties":{"NAME":"Kwazulu-Natal","GEOID":"NL"}},{"type":"Point","coordinates":[29.853220595001428,-26.377723819979927],"properties":{"NAME":"Mpumalanga","GEOID":"MP"}},{"type":"Point","coordinates":[29.339678258578306,-23.638727797235234],"properties":{"NAME":"Limpopo","GEOID":"LP"}},{"type":"Point","coordinates":[25.520490292540828,-26.68513559882234],"properties":{"NAME":"North West","GEOID":"NW"}},{"type":"Point","coordinates":[21.846444304395632,-29.46355605825154],"properties":{"NAME":"Northern Cape","GEOID":"NC"}}]}},"crs":{"type":"name","properties":{"name":"urn:ogc:def:crs:OGC:1.3:CRS84"}}}